장소,별점,수정된 주소,위도,경도
감성돼지,4.54,대구 수성구 고산로4안길 33-8,35.8302196,128.7048844
리안,4.48,대구 수성구 교학로4길 48,35.8552695,128.6503641
신라식당,4.39,대구 중구 중앙대로 406-8,35.8579739,128.5922977
도마29,4.62,대구 중구 동성로1길 46-2,35.8671397,128.59526
조조칼국수 본점,4.45,대구 수성구 국채보상로 912,35.8680588,128.6152562
아티코,4.9,대구 수성구 지범로 43-12,35.82702,128.62757
딤딤섬 신세계백화점대구점,4.48,대구 동구 동부로 149,35.8765658,128.6262441
용지봉,4.34,대구 수성구 들안로 9,35.8411811,128.6173904
전원돈까스,4.48,대구 중구 동성로6길 2-23,35.8691016,128.5952997
버거킹 대구죽전네거리점,4.46,대구 달서구 달구벌대로 1536,35.8514798,128.5410689
숨은집,4.65,대구 중구 동성로1길 46-23,35.8671397,128.59526
정미네,4.46,대구 달성군 가창면 헐티로2길,35.7472388,128.5549912
블랙타코앤그릴,4.53,대구 중구 공평로 31,35.8739593,128.6014294
바르미스시뷔페 두산점,4.37,대구 수성구 무학로 78,35.8296845,128.6168175
무화커피,4.54,대구 수성구 국채보상로186길 81,35.8636023,128.6341765
중앙떡볶이,4.24,대구 중구 동성로2길 81,35.869467650000004,128.59696661780404
진미식육식당,4.62,대구 서구 달서천로83길 13,35.8839513,128.5785842
오디너리하우스,4.54,대구 중구 동성로2길 21-8,35.8667277,128.5963147
여원찜갈비,4.5,대구 북구 복현로 182-27,35.8943994,128.6239908
팔공노을철판구이,4.49,대구 동구 서촌로 98-1,35.9842284,128.6233075
수봉반점,4.62,대구 북구 대현남로2길 60,35.8790425,128.6058204
더뷔페 앳 인터불고,4.54,대구 수성구 팔현길 212,35.8634775,128.6724827
사파키친,4.59,대구 동구 동부로34길 10,35.873131,128.6334272
구삼커피,4.7,대구 중구 봉산문화2길 16-3,35.8638658,128.596748
생수정,4.32,대구 달성군 가창면,35.7778073,128.6476679
바스코 동성로본점,4.58,대구 중구 동성로4길 100,35.8675075,128.5991196
앞산 큰골집 본점,4.75,대구 남구 큰골길 35,35.8362566,128.582676
마코토,4.34,대구 중구 동성로2길 18-6,35.8667277,128.5963147
군위식당,4.3,대구 중구 경상감영길 101,35.8708028,128.5859117
칸다소바 대구동성로점,4.6,대구 중구 중앙대로 398-1,35.8579739,128.5922977
동아식당,4.55,대구 중구 국채보상로125길 14,35.8710451,128.5988198
오퐁드부아,4.38,대구 달성군 가창면,35.7778073,128.6476679
조조칼국수 앞산점,4.53,대구 남구 현충로15길 13-1,35.8371707,128.5789842
미진분식본점,4.36,대구 중구 동성로 6-1,35.8678431,128.5966739699789
낫배드,4.63,대구 중구 동성로6길 45,35.8689379,128.5978735431239
푸나왈라,4.63,대구 수성구 수성못2길 3,35.8268423,128.6233599
카페 루시드,4.67,대구 중구 동성로4길 94,35.8688273,128.5996394894397
로렐트리 동촌유원지 본점,4.71,대구 동구 효동로6길 122,35.8793815,128.6546749
수성못 스펠바운드 레스토랑,4.34,대구 수성구 용학로 106-5,35.822718,128.6393846
유이쯔,4.57,대구 중구 중앙대로 376-20,35.8553663,128.5906658
구공탄막창,4.49,대구 남구 대명로 303,35.839421,128.5677881
빕스 프리미어 대구수성교점,4.29,대구 중구 달구벌대로 2232,35.8656314,128.5966313
조조칼국수 죽전직영점,4.52,대구 달서구 와룡로 169,35.8435651,128.5370638
황토시골집,4.33,대구 동구 파계로 604,35.9935142,128.6378505
아웃백스테이크하우스 대구 신세계점,4.54,대구 동구 동부로 149,35.8765658,128.6262441
오스테리아밀즈,4.55,대구 수성구 동원로1길 26,35.8597497,128.6391095
샤브20 만촌점,4.64,대구 수성구 화랑로 68,35.8763449,128.6540857
커들포드,4.48,대구 동구 팔공로 1334,35.9551193,128.688228
푸른회식당,4.46,대구 서구 달구벌대로375길 14-1,35.8630316,128.5702204
헤이마,4.48,대구 동구 파계로 583,35.9935142,128.6378505
국일따로국밥,4.39,대구 중구 국채보상로 571,35.8705663,128.5823058
서민갈비,4.41,대구 수성구 들안로 8-5,35.8411811,128.6173904
내안에,4.29,대구 수성구 무학로 85,35.8296845,128.6168175
랜디스도넛 대구동성로점,4.48,대구 중구 동성로6길 56,35.8691016,128.5952997
제주곤이칼국수 대구 종로점,4.85,대구 중구 종로 42,35.8752728,128.5903318
161커피스튜디오,4.4,대구 달성군 현풍읍 비슬로,35.6771333,128.4462937
슬로우터틀 동성로점,4.61,대구 중구 동성로2길 18-14,35.8667277,128.5963147
후꾸스시,4.55,대구 수성구 동대구로20길 66,35.8382449,128.6271424
연화,4.65,대구 동구 동부로34길 3,35.873131,128.6334272
토요정,4.57,대구 중구 동성로 8-9,35.8678431,128.5966739699789
머꼬삼겹살,4.78,대구 중구 동성로3길 32-43,35.8664398,128.5983398
이가네더덕밥 대구팔공산점,4.53,대구 북구 이곡길 35-41,35.938613,128.604032
마마다이닝,4.84,대구 중구 동성로2길 21-5,35.8667277,128.5963147
유쾌한뭉티기 대구본점,4.66,대구 달서구 야외음악당로 3,35.8559894,128.5629602
바르미스시뷔페 동성로점,4.3,대구 중구 동성로6길 61,35.8687042,128.59874669066713
중화반점,4.37,대구 중구 중앙대로 406-12,35.8579739,128.5922977
가야성,4.37,대구 달서구 월배로83길 7,35.8333104,128.5454183
아웃백스테이크하우스 대구죽전점,4.58,대구 달서구 달구벌대로 1545,35.8514798,128.5410689
8번식당 본점,4.38,대구 중구 서성로13길 8,35.8720623,128.5852645
멜,4.6,대구 중구 동성로2길 5-2,35.8667277,128.5963147
지환이네왕족발 본점,4.68,대구 남구 대명복개로 96,35.8415847,128.5660061
아눅 앞산,4.51,대구 남구 앞산순환로 459,35.83236,128.5751443
방천가족족발&보쌈,4.54,대구 중구 달구벌대로446길 11,35.8617093,128.6058585
카페동이 2호점,4.67,대구 수성구 수성로69길 65,35.8560495,128.6106788
핑크라이언,4.68,대구 달서구 한실로6길 158-3,35.7971293,128.5289789
낙영찜갈비 본점,4.23,대구 중구 동덕로36길 9-17,35.8693644,128.6097196
동이식당,4.4,대구 달서구 한실로6길 165-7,35.79326,128.5299817
쉐이크쉑 대구동성로점,4.39,대구 중구 동성로6길 61,35.8687042,128.59874669066713
초이스엠,4.48,대구 동구 팔공산로 260,35.9671985,128.6988235
부케,4.58,대구 중구 경상감영길 213,35.8708028,128.5859117
랑데자뷰 대구동성로점,4.62,대구 중구 동성로2길 50-9,35.8667277,128.5963147
고미텐,4.63,대구 수성구 동원로 6,35.862711,128.6396811
제일콩국,4.35,대구 중구 남산로6안길 47,35.8578132,128.5857976
효탄,4.43,대구 수성구 명덕로75길 14-2,35.8554635,128.6119365
유타로 대구점,4.46,대구 중구 중앙대로 406-4,35.8579739,128.5922977
민물장어 직판장 풍천관 본점,4.89,대구 달서구 월곡로 268-10,35.8122629,128.54468
조조칼국수 월성점,4.5,대구 달서구 조암로 105,35.8230649,128.5216426
윤옥연할매떡볶이 본점,4.29,대구 수성구 들안로77길 11,35.8651771,128.6177382
녹양구이 두산동점,4.24,대구 수성구 무학로17길 21,35.831193,128.6177824
삼덕통닭 동성로점,4.47,대구 중구 동성로5길 89,35.8673876,128.5977543
동림식당,4.34,대구 동구 파계로116길 49,35.9870341,128.6386123
스테이블모먼트 월배점,4.53,대구 달서구 조암남로32길 24,35.8187152,128.5152352
후라토식당 대구앞산점,4.51,대구 남구 장전3길 85,35.8413945,128.5757883
반고개의성무침회본점,4.49,대구 서구 달구벌대로375길 17,35.8630316,128.5702204
바비레드 신세계백화점 대구점,4.43,대구 동구 동부로 149,35.8765658,128.6262441
블루웨이브,4.75,대구 남구 큰골5길 5,35.8380052,128.582104
김해통닭,4.67,대구 중구 국채보상로151길 10,35.8692818,128.6122982
마고플레인 아양점,4.43,대구 동구 해동로 107,35.8964546,128.6389103
뜨돈 진천본점,4.49,대구 달서구 진천로9길 30,35.8121887,128.5216797
달고떡볶이,4.45,대구 달서구 야외음악당로39길 54,35.8538031,128.5548342
디귿,4.81,대구 중구 달구벌대로 2125-11,35.862178,128.6048079
강원도집,4.32,대구 달성군 가창면 가창로176길,35.7899036,128.6341283
스구식탁 동성로본점,4.61,대구 중구 동성로1길 25,35.8671397,128.59526
단골식당 백종원3대천왕 연탄돼지불고기,4.5,대구 북구 칠성시장로7길 9-1,35.8759644,128.6030736
대구근대골목단팥빵 본점,4.42,대구 중구 남성로 7-1,35.8683,128.58952
방촌시장원조떡볶이,4.23,대구 동구 동촌로46길 2,35.8796815,128.6639307
경희식당,4.34,대구 중구 큰장로28길 25,35.8698024,128.5811669
모닥 동대구점,4.82,대구 동구 동부로34길 6,35.873131,128.6334272
페어링테이블,4.41,대구 중구 동성로2길 4-3,35.8667277,128.5963147
신천궁전떡볶이,4.42,대구 수성구 국채보상로162길 72,35.8658042,128.6193251
취하는밤,4.79,대구 중구 동성로3길 32-33,35.8678877,128.597894
녹야원 대구칠곡 3지구점,4.7,대구 북구 동암로 128-10,35.943258,128.564546
이자와 동성로점,4.52,대구 중구 동성로3길 32-21,35.8678877,128.597894
무시무시 대구공평점,4.6,대구 중구 공평로 53,35.86883735,128.59975885
통나무집,4.36,대구 중구 중앙대로81길 23,35.869509,128.5894659
삼대애,4.47,대구 중구 명덕로 333,35.8565759,128.595102
서영홍합밥,4.47,대구 중구 약령길 33-8,35.8692931,128.5894706
뭉돌이흑돼지 본점,4.84,대구 북구 동북로 218,35.8968172,128.6171478
동양백반,4.43,대구 중구 달구벌대로 2109-37,35.8622279,128.5720354
망향비빔국수 대구수성점,4.43,대구 수성구 무학로 89,35.8296845,128.6168175
옹송 하이볼바 동성로,4.87,대구 중구 동성로4길 13,35.8675075,128.5991196
차이,4.58,대구 중구 동성로2길 18-15,35.8667277,128.5963147
다나,4.57,대구 중구 동성로2길 12-24,35.8667277,128.5963147
민스크,4.39,대구 남구 현충로6길 9-2,35.8345435,128.5811142
신서문김밥,4.54,대구 중구 큰장로26길 6,35.8685997,128.580255
대도양조장,4.39,대구 중구 동덕로14길 47,35.8600126,128.6066946
바뷔치 중앙로점,4.54,대구 중구 중앙대로81길 1,35.869509,128.5894659
해풍해물칼국수 대구본점,4.57,대구 달서구 야외음악당로39안길 8,35.8528215,128.5525394
태능집,4.44,대구 중구 달성로22길 86,35.8744734,128.5877628
소담히 동성로,4.92,대구 중구 동성로4길 6,35.8675075,128.5991196
갓파스시 대구점,4.22,대구 중구 동성로2길 45,35.8667277,128.5963147
도쿄시장 동성로 본점,4.5,대구 중구 동성로4길 43,35.8675075,128.5991196
빠다롤뺑프랑스,4.51,대구 중구 동성로1길 41,35.8671397,128.59526
오롯이 스토어,4.93,대구 중구 교동3길 36,35.8725584,128.5986233
만재네 종로점,4.57,대구 중구 중앙대로79길 24,35.86927,128.591141
부산안면옥,4.29,대구 중구 국채보상로125길 4,35.8710451,128.5988198
포크팬,4.5,대구 북구 동북로 219,35.8968172,128.6171478
우각정식당 수성못점,4.41,대구 수성구 용학로 111,35.822718,128.6393846
슬로우라이프,4.51,대구 수성구 동대구로77길 33-4,35.8647967,128.6259975
레오차우,4.61,대구 남구 큰골길 46,35.8362566,128.582676
명동돼지한마리,4.61,대구 수성구 범어천로 48,35.8639354,128.6187968
울릉도해물탕 본점,4.42,대구 수성구 청수로 96,35.8518227,128.6592492
간큰갈비 태전점,4.49,대구 북구 태전로 37,35.9296909,128.535132
미진분식 228직영점,4.4,대구 중구 동성로2길 69,35.86904414999999,128.5969112430463
만복이쭈꾸미낙지볶음 동대구점,4.46,대구 동구 동대구로 448,35.8717874,128.6259327
고기9단 침산직영점,4.84,대구 북구 침산남로 197,35.8861527,128.5882501
반월당 부자식당,4.68,대구 중구 관덕정길 13-13,35.8654549,128.590344
성서 제1능이버섯 능이백숙,4.82,대구 달서구 달구벌대로251길 12,35.8541204,128.5049533
인스퍼레이션디동촌유원지,4.41,대구 동구 효동로6길 57,35.8793815,128.6546749
